{"type":"FeatureCollection","features":[{"type":"Feature","properties":{"parcel":"76-62","codeNo":410.55,"codeDesc":"Extermination of Insects, Rodents and Skunks","dateCited":"03/18/2014","dateCorrected":"05/27/2014","status":"Corrected","address":"169-A Harvard St\n","city":"Cambridge, MA\n"},"geometry":{"type":"Point","coordinates":[-71.11276929,42.37166045]}},{"type":"Feature","properties":{"parcel":"89-26","codeNo":410.55,"codeDesc":"Extermination of Insects, Rodents and Skunks","dateCited":"03/20/2014","dateCorrected":"","status":"Cited","address":"409 Washington St\n","city":"Cambridge, MA\n"},"geometry":{"type":"Point","coordinates":[-71.10051254,42.36594613]}},{"type":"Feature","properties":{"parcel":"89-24","codeNo":410.55,"codeDesc":"Extermination of Insects, Rodents and Skunks","dateCited":"03/20/2014","dateCorrected":"","status":"Cited","address":"395 Washington St\n","city":"Cambridge, MA\n"},"geometry":{"type":"Point","coordinates":[-71.10015188,42.36583666]}},{"type":"Feature","properties":{"parcel":"89-25","codeNo":410.55,"codeDesc":"Extermination of Insects, Rodents and Skunks","dateCited":"03/20/2014","dateCorrected":"","status":"Cited","address":"401 Washington St\n","city":"Cambridge, MA\n"},"geometry":{"type":"Point","coordinates":[-71.10033163,42.36589658]}},{"type":"Feature","properties":{"parcel":"89-2","codeNo":410.55,"codeDesc":"Extermination of Insects, Rodents and Skunks","dateCited":"03/24/2014","dateCorrected":"05/06/2014","status":"Corrected","address":"86 NORFOLK ST\n","city":"Cambridge, MA\n"},"geometry":{"type":"Point","coordinates":[-71.10052406,42.36629066]}},{"type":"Feature","properties":{"parcel":"96-25","codeNo":410.55,"codeDesc":"Extermination of Insects, Rodents and Skunks","dateCited":"03/24/2014","dateCorrected":"07/11/2014","status":"Corrected","address":"256 BROOKLINE ST\n","city":"Cambridge, MA\n"},"geometry":{"type":"Point","coordinates":[-71.10755183,42.35776608]}},{"type":"Feature","properties":{"parcel":"89-26-407","codeNo":410.55,"codeDesc":"Extermination of Insects, Rodents and Skunks","dateCited":"03/24/2014","dateCorrected":"06/09/2014","status":"Corrected","address":"407 WASHINGTON ST\n","city":"Cambridge, MA\n"},"geometry":{"type":"Point","coordinates":[-71.10042266,42.36591617]}},{"type":"Feature","properties":{"parcel":"89-1","codeNo":410.55,"codeDesc":"Extermination of Insects, Rodents and Skunks","dateCited":"03/24/2014","dateCorrected":"05/27/2014","status":"Corrected","address":"413 WASHINGTON ST\n","city":"Cambridge, MA\n"},"geometry":{"type":"Point","coordinates":[-71.10060242,42.36597609]}},{"type":"Feature","properties":{"parcel":"89-26-409","codeNo":410.55,"codeDesc":"Extermination of Insects, Rodents and Skunks","dateCited":"03/24/2014","dateCorrected":"06/09/2014","status":"Corrected","address":"407 WASHINGTON ST\n","city":"Cambridge, MA\n"},"geometry":{"type":"Point","coordinates":[-71.10042266,42.36591617]}},{"type":"Feature","properties":{"parcel":"88-13","codeNo":410.55,"codeDesc":"Extermination of Insects, Rodents and Skunks","dateCited":"03/25/2014","dateCorrected":"05/15/2014","status":"Corrected","address":"231 Harvard St\n","city":"Cambridge, MA\n"},"geometry":{"type":"Point","coordinates":[-71.10023138,42.36777595]}},{"type":"Feature","properties":{"parcel":"125-50","codeNo":410.55,"codeDesc":"Extermination of Insects, Rodents and Skunks","dateCited":"03/26/2014","dateCorrected":"05/06/2014","status":"Corrected","address":"37 Pleasant St\n","city":"Cambridge, MA\n"},"geometry":{"type":"Point","coordinates":[-71.10788945,42.36437326]}},{"type":"Feature","properties":{"parcel":"89-26-409","codeNo":410.55,"codeDesc":"Extermination of Insects, Rodents and Skunks","dateCited":"03/27/2014","dateCorrected":"","status":"Cited","address":"407 WASHINGTON ST\n","city":"Cambridge, MA\n"},"geometry":{"type":"Point","coordinates":[-71.10042266,42.36591617]}},{"type":"Feature","properties":{"parcel":"104-88","codeNo":410.55,"codeDesc":"Extermination of Insects, Rodents and Skunks","dateCited":"04/01/2014","dateCorrected":"05/06/2014","status":"Corrected","address":"44 PLEASANT ST\n","city":"Cambridge, MA\n"},"geometry":{"type":"Point","coordinates":[-71.10834921,42.36389737]}},{"type":"Feature","properties":{"parcel":"76-42","codeNo":410.55,"codeDesc":"Extermination of Insects, Rodents and Skunks","dateCited":"04/01/2014","dateCorrected":"04/29/2014","status":"Corrected","address":"250 Broadway\n","city":"Cambridge, MA\n"},"geometry":{"type":"Point","coordinates":[-71.09604053,42.36733347]}},{"type":"Feature","properties":{"parcel":"22-31","codeNo":410.55,"codeDesc":"Extermination of Insects, Rodents and Skunks","dateCited":"04/01/2014","dateCorrected":"05/27/2014","status":"Corrected","address":"11-1/2 Fifth St\n","city":"Cambridge, MA\n"},"geometry":{"type":"Point","coordinates":[-71.10600946,42.36679164]}},{"type":"Feature","properties":{"parcel":"89-8","codeNo":410.55,"codeDesc":"Extermination of Insects, Rodents and Skunks","dateCited":"04/01/2014","dateCorrected":"05/20/2014","status":"Corrected","address":"20 Suffolk St\n","city":"Cambridge, MA\n"},"geometry":{"type":"Point","coordinates":[-71.09963911,42.36619271]}},{"type":"Feature","properties":{"parcel":"88-67-219/1","codeNo":410.55,"codeDesc":"Extermination of Insects, Rodents and Skunks","dateCited":"04/02/2014","dateCorrected":"04/17/2014","status":"Corrected","address":"219-221 HARVARD ST\n","city":"Cambridge, MA\n"},"geometry":{"type":"Point","coordinates":[-71.09936756,42.36749359]}},{"type":"Feature","properties":{"parcel":"88-46-14/1","codeNo":410.55,"codeDesc":"Extermination of Insects, Rodents and Skunks","dateCited":"04/02/2014","dateCorrected":"05/21/2014","status":"Corrected","address":"14-16 ELM ST\n","city":"Cambridge, MA\n"},"geometry":{"type":"Point","coordinates":[-71.09849724,42.36762549]}},{"type":"Feature","properties":{"parcel":"80-175","codeNo":410.55,"codeDesc":"Extermination of Insects, Rodents and Skunks","dateCited":"04/03/2014","dateCorrected":"05/06/2014","status":"Corrected","address":"950 Cambridge St\n","city":"Cambridge, MA\n"},"geometry":{"type":"Point","coordinates":[-71.0925641,42.37265241]}},{"type":"Feature","properties":{"parcel":"139-95","codeNo":410.55,"codeDesc":"Extermination of Insects, Rodents and Skunks","dateCited":"04/07/2014","dateCorrected":"04/28/2014","status":"Corrected","address":"67 DANA ST\n","city":"Cambridge, MA\n"},"geometry":{"type":"Point","coordinates":[-71.10786755,42.37341867]}},{"type":"Feature","properties":{"parcel":"142-73","codeNo":410.55,"codeDesc":"Extermination of Insects, Rodents and Skunks","dateCited":"04/07/2014","dateCorrected":"04/24/2014","status":"Corrected","address":"7 KIRKLAND RD\n","city":"Cambridge, MA\n"},"geometry":{"type":"Point","coordinates":[-71.11151453,42.37667963]}},{"type":"Feature","properties":{"parcel":"139-21","codeNo":410.55,"codeDesc":"Extermination of Insects, Rodents and Skunks","dateCited":"04/07/2014","dateCorrected":"05/29/2014","status":"Corrected","address":"73 DANA ST\n","city":"Cambridge, MA"},"geometry":{"type":"Point","coordinates":[-71.10753685,42.37386806]}},{"type":"Feature","properties":{"parcel":"126-34","codeNo":410.55,"codeDesc":"Extermination of Insects, Rodents and Skunks","dateCited":"04/07/2014","dateCorrected":"","status":"Corrected","address":"1 Pond Pl","city":"Cambridge, MA"},"geometry":{"type":"Point","coordinates":[-71.11351386,42.3632665]}},{"type":"Feature","properties":{"parcel":"125-107","codeNo":410.55,"codeDesc":"Extermination of Insects, Rodents and Skunks","dateCited":"04/07/2014","dateCorrected":"07/08/2014","status":"Corrected","address":"5 JAY ST","city":"Cambridge, MA"},"geometry":{"type":"Point","coordinates":[-71.10976651,42.36389391]}},{"type":"Feature","properties":{"parcel":"182-86","codeNo":410.55,"codeDesc":"Extermination of Insects, Rodents and Skunks","dateCited":"04/08/2014","dateCorrected":"04/15/2014","status":"Corrected","address":"15 CHESTER ST","city":"Cambridge, MA"},"geometry":{"type":"Point","coordinates":[-71.12457679,42.39352369]}},{"type":"Feature","properties":{"parcel":"74-125-193","codeNo":410.55,"codeDesc":"Extermination of Insects, Rodents and Skunks","dateCited":"04/08/2014","dateCorrected":"04/28/2014","status":"Corrected","address":"193 Windsor St","city":"Cambridge, MA"},"geometry":{"type":"Point","coordinates":[-71.09585386,42.36603139]}},{"type":"Feature","properties":{"parcel":"74-44","codeNo":410.55,"codeDesc":"Extermination of Insects, Rodents and Skunks","dateCited":"04/08/2014","dateCorrected":"05/15/2014","status":"Corrected","address":"177 Windsor St","city":"Cambridge, MA"},"geometry":{"type":"Point","coordinates":[-71.09613299,42.36526517]}},{"type":"Feature","properties":{"parcel":"139-19-1","codeNo":410.55,"codeDesc":"Extermination of Insects, Rodents and Skunks","dateCited":"04/08/2014","dateCorrected":"04/28/2014","status":"Corrected","address":"79 DANA ST","city":"Cambridge, MA"},"geometry":{"type":"Point","coordinates":[-71.10731676,42.37417803]}},{"type":"Feature","properties":{"parcel":"75-7","codeNo":410.55,"codeDesc":"Extermination of Insects, Rodents and Skunks","dateCited":"04/09/2014","dateCorrected":"05/23/2014","status":"Corrected","address":"304 WASHINGTON ST","city":"Cambridge, MA"},"geometry":{"type":"Point","coordinates":[-71.0980674,42.36519253]}},{"type":"Feature","properties":{"parcel":"75-8","codeNo":410.55,"codeDesc":"Extermination of Insects, Rodents and Skunks","dateCited":"04/09/2014","dateCorrected":"05/28/2014","status":"Corrected","address":"55 PINE ST","city":"Cambridge, MA"},"geometry":{"type":"Point","coordinates":[-71.09804435,42.3649713]}},{"type":"Feature","properties":{"parcel":"75-39","codeNo":410.55,"codeDesc":"Extermination of Insects, Rodents and Skunks","dateCited":"04/09/2014","dateCorrected":"07/14/2014","status":"Corrected","address":"97 PINE ST","city":"Cambridge, MA"},"geometry":{"type":"Point","coordinates":[-71.09782311,42.36553246]}},{"type":"Feature","properties":{"parcel":"75-72","codeNo":410.55,"codeDesc":"Extermination of Insects, Rodents and Skunks","dateCited":"04/09/2014","dateCorrected":"05/06/2014","status":"Corrected","address":"288 Washington St","city":"Cambridge, MA"},"geometry":{"type":"Point","coordinates":[-71.09758574,42.36509228]}},{"type":"Feature","properties":{"parcel":"75-95-1","codeNo":410.55,"codeDesc":"Extermination of Insects, Rodents and Skunks","dateCited":"04/09/2014","dateCorrected":"04/24/2014","status":"Corrected","address":"289 WASHINGTON ST","city":"Cambridge, MA"},"geometry":{"type":"Point","coordinates":[-71.09758459,42.36514644]}},{"type":"Feature","properties":{"parcel":"75-71","codeNo":410.55,"codeDesc":"Extermination of Insects, Rodents and Skunks","dateCited":"04/09/2014","dateCorrected":"05/21/2014","status":"Corrected","address":"296 WASHINGTON ST","city":"Cambridge, MA"},"geometry":{"type":"Point","coordinates":[-71.09778624,42.36513261]}},{"type":"Feature","properties":{"parcel":"75-75","codeNo":410.55,"codeDesc":"Extermination of Insects, Rodents and Skunks","dateCited":"04/09/2014","dateCorrected":"05/01/2014","status":"Corrected","address":"71 Cherry St","city":"Cambridge, MA"},"geometry":{"type":"Point","coordinates":[-71.09731265,42.36458298]}},{"type":"Feature","properties":{"parcel":"75-152","codeNo":410.55,"codeDesc":"Extermination of Insects, Rodents and Skunks","dateCited":"04/09/2014","dateCorrected":"05/15/2014","status":"Corrected","address":"92 COLUMBIA ST","city":"Cambridge, MA"},"geometry":{"type":"Point","coordinates":[-71.0986009,42.36564308]}},{"type":"Feature","properties":{"parcel":"118-70-1B","codeNo":410.55,"codeDesc":"Extermination of Insects, Rodents and Skunks","dateCited":"04/10/2014","dateCorrected":"04/24/2014","status":"Corrected","address":"33 INMAN ST","city":"Cambridge, MA"},"geometry":{"type":"Point","coordinates":[-71.1042275,42.36820806]}},{"type":"Feature","properties":{"parcel":"80-58","codeNo":410.55,"codeDesc":"Extermination of Insects, Rodents and Skunks","dateCited":"04/10/2014","dateCorrected":"04/30/2014","status":"Corrected","address":"116 WILLOW ST","city":"Cambridge, MA"},"geometry":{"type":"Point","coordinates":[-71.09193034,42.37246574]}},{"type":"Feature","properties":{"parcel":"118-70-3","codeNo":410.55,"codeDesc":"Extermination of Insects, Rodents and Skunks","dateCited":"04/10/2014","dateCorrected":"04/24/2014","status":"Corrected","address":"33 INMAN ST","city":"Cambridge, MA"},"geometry":{"type":"Point","coordinates":[-71.1042275,42.36820806]}},{"type":"Feature","properties":{"parcel":"75-154","codeNo":410.55,"codeDesc":"Extermination of Insects, Rodents and Skunks","dateCited":"04/10/2014","dateCorrected":"05/06/2014","status":"Corrected","address":"319 WASHINGTON ST","city":"Cambridge, MA"},"geometry":{"type":"Point","coordinates":[-71.09862814,42.36538731]}},{"type":"Feature","properties":{"parcel":"118-70","codeNo":410.55,"codeDesc":"Extermination of Insects, Rodents and Skunks","dateCited":"04/10/2014","dateCorrected":"04/24/2014","status":"Corrected","address":"33 INMAN ST","city":"Cambridge, MA"},"geometry":{"type":"Point","coordinates":[-71.1042275,42.36820806]}},{"type":"Feature","properties":{"parcel":"118-70-1","codeNo":410.55,"codeDesc":"Extermination of Insects, Rodents and Skunks","dateCited":"04/10/2014","dateCorrected":"04/24/2014","status":"Corrected","address":"33 INMAN ST","city":"Cambridge, MA"},"geometry":{"type":"Point","coordinates":[-71.1042275,42.36820806]}},{"type":"Feature","properties":{"parcel":"118-70-2","codeNo":410.55,"codeDesc":"Extermination of Insects, Rodents and Skunks","dateCited":"04/10/2014","dateCorrected":"04/24/2014","status":"Corrected","address":"33 INMAN ST","city":"Cambridge, MA"},"geometry":{"type":"Point","coordinates":[-71.1042275,42.36820806]}},{"type":"Feature","properties":{"parcel":"22-123","codeNo":410.55,"codeDesc":"Extermination of Insects, Rodents and Skunks","dateCited":"04/15/2014","dateCorrected":"05/05/2014","status":"Corrected","address":"25 SCIARAPPA ST","city":"Cambridge, MA"},"geometry":{"type":"Point","coordinates":[-71.08130515,42.37216845]}},{"type":"Feature","properties":{"parcel":"22-63","codeNo":410.55,"codeDesc":"Extermination of Insects, Rodents and Skunks","dateCited":"04/15/2014","dateCorrected":"05/05/2014","status":"Corrected","address":"99 GORE ST","city":"Cambridge, MA"},"geometry":{"type":"Point","coordinates":[-71.08226731,42.37207626]}},{"type":"Feature","properties":{"parcel":"22-60","codeNo":410.55,"codeDesc":"Extermination of Insects, Rodents and Skunks","dateCited":"04/15/2014","dateCorrected":"05/05/2014","status":"Corrected","address":"93 Gore St","city":"Cambridge, MA"},"geometry":{"type":"Point","coordinates":[-71.08200689,42.37204631]}},{"type":"Feature","properties":{"parcel":"22-115","codeNo":410.55,"codeDesc":"Extermination of Insects, Rodents and Skunks","dateCited":"04/15/2014","dateCorrected":"06/25/2014","status":"Corrected","address":"95 GORE ST","city":"Cambridge, MA"},"geometry":{"type":"Point","coordinates":[-71.08209792,42.37205668]}},{"type":"Feature","properties":{"parcel":"22-59","codeNo":410.55,"codeDesc":"Extermination of Insects, Rodents and Skunks","dateCited":"04/15/2014","dateCorrected":"06/18/2014","status":"Corrected","address":"87 GORE ST","city":"Cambridge, MA"},"geometry":{"type":"Point","coordinates":[-71.08163701,42.37200713]}},{"type":"Feature","properties":{"parcel":"21-114-1","codeNo":410.55,"codeDesc":"Extermination of Insects, Rodents and Skunks","dateCited":"04/16/2014","dateCorrected":"04/25/2014","status":"Corrected","address":"26 SCIARAPPA ST","city":"Cambridge, MA"},"geometry":{"type":"Point","coordinates":[-71.08119569,42.37234014]}},{"type":"Feature","properties":{"parcel":"75-7","codeNo":410.55,"codeDesc":"Extermination of Insects, Rodents and Skunks","dateCited":"04/16/2014","dateCorrected":"05/06/2014","status":"Corrected","address":"304 WASHINGTON ST","city":"Cambridge, MA"},"geometry":{"type":"Point","coordinates":[-71.0980674,42.36519253]}},{"type":"Feature","properties":{"parcel":"96-25","codeNo":410.55,"codeDesc":"Extermination of Insects, Rodents and Skunks","dateCited":"04/17/2014","dateCorrected":"","status":"Cited","address":"256 Brookline St","city":"Cambridge, MA"},"geometry":{"type":"Point","coordinates":[-71.10755183,42.35776608]}},{"type":"Feature","properties":{"parcel":"23-27","codeNo":410.55,"codeDesc":"Extermination of Insects, Rodents and Skunks","dateCited":"04/17/2014","dateCorrected":"","status":"Cited","address":"102 GORE ST","city":"Cambridge, MA"},"geometry":{"type":"Point","coordinates":[-71.08243324,42.3720417]}},{"type":"Feature","properties":{"parcel":"104-133-6B","codeNo":410.55,"codeDesc":"Extermination of Insects, Rodents and Skunks","dateCited":"04/18/2014","dateCorrected":"06/24/2014","status":"Corrected","address":"55 MAGAZINE ST","city":"Cambridge, MA"},"geometry":{"type":"Point","coordinates":[-71.10742047,42.36247315]}},{"type":"Feature","properties":{"parcel":"91-82","codeNo":410.55,"codeDesc":"Extermination of Insects, Rodents and Skunks","dateCited":"04/18/2014","dateCorrected":"05/19/2014","status":"Corrected","address":"22 BISHOP ALLEN DR","city":"Cambridge, MA"},"geometry":{"type":"Point","coordinates":[-71.09923742,42.3639787]}},{"type":"Feature","properties":{"parcel":"112-6","codeNo":410.55,"codeDesc":"Extermination of Insects, Rodents and Skunks","dateCited":"04/23/2014","dateCorrected":"05/29/2014","status":"Corrected","address":"2 ELLSWORTH PK","city":"Cambridge, MA"},"geometry":{"type":"Point","coordinates":[-71.10659198,42.37301307]}},{"type":"Feature","properties":{"parcel":"215-13","codeNo":410.55,"codeDesc":"Extermination of Insects, Rodents and Skunks","dateCited":"04/23/2014","dateCorrected":"","status":"Cited","address":"33 CONCORD AVE","city":"Cambridge, MA"},"geometry":{"type":"Point","coordinates":[-71.1263467,42.37981499]}},{"type":"Feature","properties":{"parcel":"122-9-21/2","codeNo":410.55,"codeDesc":"Extermination of Insects, Rodents and Skunks","dateCited":"04/23/2014","dateCorrected":"05/08/2014","status":"Corrected","address":"19 Hews St","city":"Cambridge, MA"},"geometry":{"type":"Point","coordinates":[-71.11300558,42.36506924]}},{"type":"Feature","properties":{"parcel":"122-9-21/2","codeNo":410.55,"codeDesc":"Extermination of Insects, Rodents and Skunks","dateCited":"04/23/2014","dateCorrected":"05/08/2014","status":"Corrected","address":"19 Hews St","city":"Cambridge, MA"},"geometry":{"type":"Point","coordinates":[-71.11300558,42.36506924]}},{"type":"Feature","properties":{"parcel":"122-11","codeNo":410.55,"codeDesc":"Extermination of Insects, Rodents and Skunks","dateCited":"04/23/2014","dateCorrected":"05/06/2014","status":"Corrected","address":"9 HEWS ST","city":"Cambridge, MA"},"geometry":{"type":"Point","coordinates":[-71.1130655,42.36484915]}},{"type":"Feature","properties":{"parcel":"89-4","codeNo":410.55,"codeDesc":"Extermination of Insects, Rodents and Skunks","dateCited":"04/29/2014","dateCorrected":"05/27/2014","status":"Corrected","address":"32 SUFFOLK ST","city":"Cambridge, MA"},"geometry":{"type":"Point","coordinates":[-71.1000885,42.36632292]}},{"type":"Feature","properties":{"parcel":"26-59","codeNo":410.55,"codeDesc":"Extermination of Insects, Rodents and Skunks","dateCited":"04/29/2014","dateCorrected":"05/27/2014","status":"Corrected","address":"105 SCIARAPPA ST","city":"Cambridge, MA"},"geometry":{"type":"Point","coordinates":[-71.08211521,42.36868856]}},{"type":"Feature","properties":{"parcel":"89-3","codeNo":410.55,"codeDesc":"Extermination of Insects, Rodents and Skunks","dateCited":"04/29/2014","dateCorrected":"","status":"Cited","address":"90 NORFOLK ST","city":"Cambridge, MA"},"geometry":{"type":"Point","coordinates":[-71.10045377,42.36638054]}},{"type":"Feature","properties":{"parcel":"89-1","codeNo":410.55,"codeDesc":"Extermination of Insects, Rodents and Skunks","dateCited":"04/30/2014","dateCorrected":"07/08/2014","status":"Corrected","address":"413 WASHINGTON ST","city":"Cambridge, MA"},"geometry":{"type":"Point","coordinates":[-71.10060242,42.36597609]}},{"type":"Feature","properties":{"parcel":"91-185","codeNo":410.55,"codeDesc":"Extermination of Insects, Rodents and Skunks","dateCited":"04/30/2014","dateCorrected":"","status":"Cited","address":"66 BISHOP ALLEN DR","city":"Cambridge, MA"},"geometry":{"type":"Point","coordinates":[-71.10091597,42.36496865]}},{"type":"Feature","properties":{"parcel":"90-107","codeNo":410.55,"codeDesc":"Extermination of Insects, Rodents and Skunks","dateCited":"04/30/2014","dateCorrected":"05/15/2014","status":"Corrected","address":"75 NORFOLK ST","city":"Cambridge, MA"},"geometry":{"type":"Point","coordinates":[-71.10081789,42.36599798]}},{"type":"Feature","properties":{"parcel":"89-1","codeNo":410.55,"codeDesc":"Extermination of Insects, Rodents and Skunks","dateCited":"04/30/2014","dateCorrected":"","status":"Cited","address":"413 WASHINGTON ST","city":"Cambridge, MA"},"geometry":{"type":"Point","coordinates":[-71.10060242,42.36597609]}},{"type":"Feature","properties":{"parcel":"90-101","codeNo":410.55,"codeDesc":"Extermination of Insects, Rodents and Skunks","dateCited":"04/30/2014","dateCorrected":"06/25/2014","status":"Corrected","address":"89 NORFOLK ST","city":"Cambridge, MA"},"geometry":{"type":"Point","coordinates":[-71.10052752,42.36639897]}},{"type":"Feature","properties":{"parcel":"76-78","codeNo":410.55,"codeDesc":"Extermination of Insects, Rodents and Skunks","dateCited":"05/01/2014","dateCorrected":"08/27/2014","status":"Corrected","address":"167 HARVARD ST","city":"Cambridge, MA"},"geometry":{"type":"Point","coordinates":[-71.09550933,42.36609592]}},{"type":"Feature","properties":{"parcel":"184-197","codeNo":410.55,"codeDesc":"Extermination of Insects, Rodents and Skunks","dateCited":"05/05/2014","dateCorrected":"","status":"Cited","address":"50 Churchill Ave","city":"Cambridge, MA"},"geometry":{"type":"Point","coordinates":[-71.13234893,42.40051688]}},{"type":"Feature","properties":{"parcel":"149-108","codeNo":410.55,"codeDesc":"Extermination of Insects, Rodents and Skunks","dateCited":"05/06/2014","dateCorrected":"05/22/2014","status":"Corrected","address":"25 HAMMOND ST","city":"Cambridge, MA"},"geometry":{"type":"Point","coordinates":[-71.11532973,42.38082669]}},{"type":"Feature","properties":{"parcel":"42-22","codeNo":410.55,"codeDesc":"Extermination of Insects, Rodents and Skunks","dateCited":"05/07/2014","dateCorrected":"","status":"Cited","address":"93 Moore St","city":"Cambridge, MA"},"geometry":{"type":"Point","coordinates":[-71.09374288,42.36606135]}},{"type":"Feature","properties":{"parcel":"42-88","codeNo":410.55,"codeDesc":"Extermination of Insects, Rodents and Skunks","dateCited":"05/07/2014","dateCorrected":"05/20/2014","status":"Corrected","address":"125 HARVARD ST","city":"Cambridge, MA"},"geometry":{"type":"Point","coordinates":[-71.09342946,42.36522595]}},{"type":"Feature","properties":{"parcel":"35-33","codeNo":410.55,"codeDesc":"Extermination of Insects, Rodents and Skunks","dateCited":"05/07/2014","dateCorrected":"06/30/2014","status":"Corrected","address":"569 CAMBRIDGE ST","city":"Cambridge, MA"},"geometry":{"type":"Point","coordinates":[-71.08573683,42.37180663]}},{"type":"Feature","properties":{"parcel":"75-151","codeNo":410.55,"codeDesc":"Extermination of Insects, Rodents and Skunks","dateCited":"05/08/2014","dateCorrected":"05/28/2014","status":"Corrected","address":"88 COLUMBIA ST","city":"Cambridge, MA"},"geometry":{"type":"Point","coordinates":[-71.09863086,42.36559238]}},{"type":"Feature","properties":{"parcel":"37-94","codeNo":410.55,"codeDesc":"Extermination of Insects, Rodents and Skunks","dateCited":"05/08/2014","dateCorrected":"","status":"Cited","address":"142R BERKSHIRE ST","city":"Cambridge, MA"},"geometry":{"type":"Point","coordinates":[-71.09094692,42.37019296]}},{"type":"Feature","properties":{"parcel":"75-74","codeNo":410.55,"codeDesc":"Extermination of Insects, Rodents and Skunks","dateCited":"05/08/2014","dateCorrected":"06/10/2014","status":"Corrected","address":"87 Cherry St","city":"Cambridge, MA"},"geometry":{"type":"Point","coordinates":[-71.09722278,42.36480306]}},{"type":"Feature","properties":{"parcel":"112-19","codeNo":410.55,"codeDesc":"Extermination of Insects, Rodents and Skunks","dateCited":"05/08/2014","dateCorrected":"05/21/2014","status":"Corrected","address":"39 HIGHLAND AVE","city":"Cambridge, MA"},"geometry":{"type":"Point","coordinates":[-71.10595592,42.37275035]}},{"type":"Feature","properties":{"parcel":"35-32","codeNo":410.55,"codeDesc":"Extermination of Insects, Rodents and Skunks","dateCited":"05/15/2014","dateCorrected":"07/17/2014","status":"Corrected","address":"561 CAMBRIDGE ST","city":"Cambridge, MA"},"geometry":{"type":"Point","coordinates":[-71.08561699,42.37179626]}},{"type":"Feature","properties":{"parcel":"118-71-1","codeNo":410.55,"codeDesc":"Extermination of Insects, Rodents and Skunks","dateCited":"05/19/2014","dateCorrected":"06/10/2014","status":"Corrected","address":"33.5 INMAN ST","city":"Cambridge, MA"},"geometry":{"type":"Point","coordinates":[-71.08306584,42.37192647]}},{"type":"Feature","properties":{"parcel":"78-104","codeNo":410.55,"codeDesc":"Extermination of Insects, Rodents and Skunks","dateCited":"05/23/2014","dateCorrected":"","status":"Cited","address":"168 Webster Ave","city":"Cambridge, MA"},"geometry":{"type":"Point","coordinates":[-71.09354469,42.37045961]}},{"type":"Feature","properties":{"parcel":"78-59","codeNo":410.55,"codeDesc":"Extermination of Insects, Rodents and Skunks","dateCited":"05/23/2014","dateCorrected":"06/05/2014","status":"Corrected","address":"370 Windsor St","city":"Cambridge, MA"},"geometry":{"type":"Point","coordinates":[-71.09420725,42.37016693]}},{"type":"Feature","properties":{"parcel":"78-68","codeNo":410.55,"codeDesc":"Extermination of Insects, Rodents and Skunks","dateCited":"05/23/2014","dateCorrected":"06/17/2014","status":"Corrected","address":"160 Webster Ave","city":"Cambridge, MA"},"geometry":{"type":"Point","coordinates":[-71.09351588,42.37036052]}},{"type":"Feature","properties":{"parcel":"78-97","codeNo":410.55,"codeDesc":"Extermination of Insects, Rodents and Skunks","dateCited":"05/23/2014","dateCorrected":"06/17/2014","status":"Corrected","address":"376 WINDSOR ST","city":"Cambridge, MA"},"geometry":{"type":"Point","coordinates":[-71.09416808,42.37029714]}},{"type":"Feature","properties":{"parcel":"78-64","codeNo":410.55,"codeDesc":"Extermination of Insects, Rodents and Skunks","dateCited":"05/23/2014","dateCorrected":"06/17/2014","status":"Corrected","address":"384 Windsor St","city":"Cambridge, MA"},"geometry":{"type":"Point","coordinates":[-71.094107,42.37044694]}},{"type":"Feature","properties":{"parcel":"96-120","codeNo":410.55,"codeDesc":"Extermination of Insects, Rodents and Skunks","dateCited":"05/29/2014","dateCorrected":"","status":"Cited","address":"566 PUTNAM AVE","city":"Cambridge, MA"},"geometry":{"type":"Point","coordinates":[-71.10762557,42.35718417]}},{"type":"Feature","properties":{"parcel":"96-26","codeNo":410.55,"codeDesc":"Extermination of Insects, Rodents and Skunks","dateCited":"05/29/2014","dateCorrected":"06/11/2014","status":"Corrected","address":"254 BROOKLINE ST","city":"Cambridge, MA"},"geometry":{"type":"Point","coordinates":[-71.10746886,42.35784674]}},{"type":"Feature","properties":{"parcel":"96-99","codeNo":410.55,"codeDesc":"Extermination of Insects, Rodents and Skunks","dateCited":"05/29/2014","dateCorrected":"","status":"Cited","address":"92 ALLSTON ST","city":"Cambridge, MA"},"geometry":{"type":"Point","coordinates":[-71.10689503,42.35786402]}},{"type":"Feature","properties":{"parcel":"96-121","codeNo":410.55,"codeDesc":"Extermination of Insects, Rodents and Skunks","dateCited":"05/29/2014","dateCorrected":"06/11/2014","status":"Corrected","address":"262 BROOKLINE ST","city":"Cambridge, MA"},"geometry":{"type":"Point","coordinates":[-71.10784912,42.35748723]}},{"type":"Feature","properties":{"parcel":"96-31-2","codeNo":410.55,"codeDesc":"Extermination of Insects, Rodents and Skunks","dateCited":"05/29/2014","dateCorrected":"06/30/2014","status":"Corrected","address":"9 PETERS ST","city":"Cambridge, MA"},"geometry":{"type":"Point","coordinates":[-71.10690194,42.3575022]}},{"type":"Feature","properties":{"parcel":"96-31","codeNo":410.55,"codeDesc":"Extermination of Insects, Rodents and Skunks","dateCited":"05/29/2014","dateCorrected":"07/10/2014","status":"Corrected","address":"9 PETERS ST","city":"Cambridge, MA"},"geometry":{"type":"Point","coordinates":[-71.10690194,42.3575022]}},{"type":"Feature","properties":{"parcel":"96-113-2","codeNo":410.55,"codeDesc":"Extermination of Insects, Rodents and Skunks","dateCited":"05/29/2014","dateCorrected":"06/11/2014","status":"Corrected","address":"19 PETERS ST","city":"Cambridge, MA"},"geometry":{"type":"Point","coordinates":[-71.10678724,42.35761638]}},{"type":"Feature","properties":{"parcel":"135-44","codeNo":410.55,"codeDesc":"Extermination of Insects, Rodents and Skunks","dateCited":"05/30/2014","dateCorrected":"","status":"Cited","address":"52 Trowbridge St","city":"Cambridge, MA"},"geometry":{"type":"Point","coordinates":[-71.11120226,42.37261092]}},{"type":"Feature","properties":{"parcel":"96-75-246/1","codeNo":410.55,"codeDesc":"Extermination of Insects, Rodents and Skunks","dateCited":"05/30/2014","dateCorrected":"06/23/2014","status":"Corrected","address":"244-250 BROOKLINE ST","city":"Cambridge, MA"},"geometry":{"type":"Point","coordinates":[-71.10714652,42.35815806]}},{"type":"Feature","properties":{"parcel":"48-154","codeNo":410.55,"codeDesc":"Extermination of Insects, Rodents and Skunks","dateCited":"05/30/2014","dateCorrected":"06/09/2014","status":"Corrected","address":"100 MEMORIAL DR","city":"Cambridge, MA"},"geometry":{"type":"Point","coordinates":[-71.08491986,42.36000611]}},{"type":"Feature","properties":{"parcel":"118-41-24A","codeNo":410.55,"codeDesc":"Extermination of Insects, Rodents and Skunks","dateCited":"06/02/2014","dateCorrected":"07/15/2014","status":"Corrected","address":"24 BIGELOW ST","city":"Cambridge, MA"},"geometry":{"type":"Point","coordinates":[-71.10486816,42.36844773]}},{"type":"Feature","properties":{"parcel":"118-41-24B","codeNo":410.55,"codeDesc":"Extermination of Insects, Rodents and Skunks","dateCited":"06/02/2014","dateCorrected":"06/10/2014","status":"Corrected","address":"24 BIGELOW ST","city":"Cambridge, MA"},"geometry":{"type":"Point","coordinates":[-71.10486816,42.36844773]}},{"type":"Feature","properties":{"parcel":"118-41-24B","codeNo":410.55,"codeDesc":"Extermination of Insects, Rodents and Skunks","dateCited":"06/02/2014","dateCorrected":"06/10/2014","status":"Corrected","address":"24 BIGELOW ST","city":"Cambridge, MA"},"geometry":{"type":"Point","coordinates":[-71.10486816,42.36844773]}},{"type":"Feature","properties":{"parcel":"76-93","codeNo":410.55,"codeDesc":"Extermination of Insects, Rodents and Skunks","dateCited":"06/03/2014","dateCorrected":"07/08/2014","status":"Corrected","address":"212 Windsor St","city":"Cambridge, MA"},"geometry":{"type":"Point","coordinates":[-71.09561765,42.36645774]}},{"type":"Feature","properties":{"parcel":"129-34","codeNo":410.55,"codeDesc":"Extermination of Insects, Rodents and Skunks","dateCited":"06/04/2014","dateCorrected":"","status":"Cited","address":"311 River St","city":"Cambridge, MA"},"geometry":{"type":"Point","coordinates":[-71.11370847,42.36225652]}},{"type":"Feature","properties":{"parcel":"129-33","codeNo":410.55,"codeDesc":"Extermination of Insects, Rodents and Skunks","dateCited":"06/04/2014","dateCorrected":"","status":"Cited","address":"275 Putnam Ave","city":"Cambridge, MA"},"geometry":{"type":"Point","coordinates":[-71.11361744,42.36250426]}},{"type":"Feature","properties":{"parcel":"103-95","codeNo":410.55,"codeDesc":"Extermination of Insects, Rodents and Skunks","dateCited":"06/04/2014","dateCorrected":"07/09/2014","status":"Corrected","address":"145 PEARL ST","city":"Cambridge, MA"},"geometry":{"type":"Point","coordinates":[-71.10647214,42.36119181]}},{"type":"Feature","properties":{"parcel":"126-26","codeNo":410.55,"codeDesc":"Extermination of Insects, Rodents and Skunks","dateCited":"06/04/2014","dateCorrected":"06/16/2014","status":"Corrected","address":"295 River St","city":"Cambridge, MA"},"geometry":{"type":"Point","coordinates":[-71.11310007,42.36246623]}},{"type":"Feature","properties":{"parcel":"103-88","codeNo":410.55,"codeDesc":"Extermination of Insects, Rodents and Skunks","dateCited":"06/04/2014","dateCorrected":"","status":"Cited","address":"15 LAWRENCE ST","city":"Cambridge, MA"},"geometry":{"type":"Point","coordinates":[-71.10697569,42.36137502]}},{"type":"Feature","properties":{"parcel":"129-9-11/1","codeNo":410.55,"codeDesc":"Extermination of Insects, Rodents and Skunks","dateCited":"06/04/2014","dateCorrected":"06/16/2014","status":"Corrected","address":"3 Blackstone St","city":"Cambridge, MA"},"geometry":{"type":"Point","coordinates":[-71.11440906,42.36223347]}},{"type":"Feature","properties":{"parcel":"127-152","codeNo":410.55,"codeDesc":"Extermination of Insects, Rodents and Skunks","dateCited":"06/09/2014","dateCorrected":"08/05/2014","status":"Corrected","address":"346 PUTNAM AVE","city":"Cambridge, MA"},"geometry":{"type":"Point","coordinates":[-71.11332361,42.36108465]}},{"type":"Feature","properties":{"parcel":"100-62","codeNo":410.55,"codeDesc":"Extermination of Insects, Rodents and Skunks","dateCited":"06/09/2014","dateCorrected":"","status":"Cited","address":"750 Memorial Dr","city":"Cambridge, MA"},"geometry":{"type":"Point","coordinates":[-71.11539541,42.35815901]}},{"type":"Feature","properties":{"parcel":"91-192","codeNo":410.55,"codeDesc":"Extermination of Insects, Rodents and Skunks","dateCited":"06/09/2014","dateCorrected":"07/17/2014","status":"Corrected","address":"4 DOUGLASS ST","city":"Cambridge, MA"},"geometry":{"type":"Point","coordinates":[-71.10082942,42.36418659]}},{"type":"Feature","properties":{"parcel":"127-1","codeNo":410.55,"codeDesc":"Extermination of Insects, Rodents and Skunks","dateCited":"06/09/2014","dateCorrected":"07/11/2014","status":"Corrected","address":"340 Putnam Ave","city":"Cambridge, MA"},"geometry":{"type":"Point","coordinates":[-71.11338353,42.36157322]}},{"type":"Feature","properties":{"parcel":"91-99","codeNo":410.55,"codeDesc":"Extermination of Insects, Rodents and Skunks","dateCited":"06/09/2014","dateCorrected":"07/17/2014","status":"Corrected","address":"57 Bishop Allen Dr","city":"Cambridge, MA"},"geometry":{"type":"Point","coordinates":[-71.10065542,42.3648745]}},{"type":"Feature","properties":{"parcel":"100-68","codeNo":410.55,"codeDesc":"Extermination of Insects, Rodents and Skunks","dateCited":"06/09/2014","dateCorrected":"","status":"Cited","address":"767 MEMORIAL DR","city":"Cambridge, MA"},"geometry":{"type":"Point","coordinates":[-71.11553484,42.35871556]}},{"type":"Feature","properties":{"parcel":"108-16","codeNo":410.55,"codeDesc":"Extermination of Insects, Rodents and Skunks","dateCited":"06/10/2014","dateCorrected":"07/10/2014","status":"Corrected","address":"9 WEST ST","city":"Cambridge, MA"},"geometry":{"type":"Point","coordinates":[-71.10396132,42.36962651]}},{"type":"Feature","properties":{"parcel":"36-31","codeNo":410.55,"codeDesc":"Extermination of Insects, Rodents and Skunks","dateCited":"06/10/2014","dateCorrected":"07/23/2014","status":"Corrected","address":"45 HARDING ST","city":"Cambridge, MA"},"geometry":{"type":"Point","coordinates":[-71.09035518,42.37385885]}},{"type":"Feature","properties":{"parcel":"108-20","codeNo":410.55,"codeDesc":"Extermination of Insects, Rodents and Skunks","dateCited":"06/10/2014","dateCorrected":"07/10/2014","status":"Corrected","address":"5 West St","city":"Cambridge, MA"},"geometry":{"type":"Point","coordinates":[-71.10383111,42.36957581]}},{"type":"Feature","properties":{"parcel":"79-83","codeNo":410.55,"codeDesc":"Extermination of Insects, Rodents and Skunks","dateCited":"06/11/2014","dateCorrected":"07/17/2014","status":"Corrected","address":"353 Windsor St","city":"Cambridge, MA"},"geometry":{"type":"Point","coordinates":[-71.09441351,42.36983162]}},{"type":"Feature","properties":{"parcel":"142-145","codeNo":410.55,"codeDesc":"Extermination of Insects, Rodents and Skunks","dateCited":"06/11/2014","dateCorrected":"","status":"Cited","address":"36 Irving St","city":"Cambridge, MA"},"geometry":{"type":"Point","coordinates":[-71.11075517,42.37636045]}},{"type":"Feature","properties":{"parcel":"142-130","codeNo":410.55,"codeDesc":"Extermination of Insects, Rodents and Skunks","dateCited":"06/12/2014","dateCorrected":"06/26/2014","status":"Corrected","address":"77 TROWBRIDGE ST","city":"Cambridge, MA"},"geometry":{"type":"Point","coordinates":[-71.10997623,42.37539714]}},{"type":"Feature","properties":{"parcel":"142-43","codeNo":410.55,"codeDesc":"Extermination of Insects, Rodents and Skunks","dateCited":"06/12/2014","dateCorrected":"06/25/2014","status":"Corrected","address":"1673 CAMBRIDGE ST","city":"Cambridge, MA"},"geometry":{"type":"Point","coordinates":[-71.1108969,42.37507681]}},{"type":"Feature","properties":{"parcel":"142-43","codeNo":410.55,"codeDesc":"Extermination of Insects, Rodents and Skunks","dateCited":"06/12/2014","dateCorrected":"","status":"Cited","address":"1673 CAMBRIDGE ST","city":"Cambridge, MA"},"geometry":{"type":"Point","coordinates":[-71.1108969,42.37507681]}},{"type":"Feature","properties":{"parcel":"142-45","codeNo":410.55,"codeDesc":"Extermination of Insects, Rodents and Skunks","dateCited":"06/12/2014","dateCorrected":"06/25/2014","status":"Corrected","address":"28 IRVING ST","city":"Cambridge, MA"},"geometry":{"type":"Point","coordinates":[-71.11083583,42.37607007]}},{"type":"Feature","properties":{"parcel":"108-60","codeNo":410.55,"codeDesc":"Extermination of Insects, Rodents and Skunks","dateCited":"06/16/2014","dateCorrected":"07/17/2014","status":"Corrected","address":"370 BROADWAY","city":"Cambridge, MA"},"geometry":{"type":"Point","coordinates":[-71.10483129,42.37079262]}},{"type":"Feature","properties":{"parcel":"200-22","codeNo":410.55,"codeDesc":"Extermination of Insects, Rodents and Skunks","dateCited":"06/16/2014","dateCorrected":"07/07/2014","status":"Corrected","address":"2072 MASSACHUSETTS AVE","city":"Cambridge, MA"},"geometry":{"type":"Point","coordinates":[-71.12301315,42.39126406]}},{"type":"Feature","properties":{"parcel":"22-43","codeNo":410.55,"codeDesc":"Extermination of Insects, Rodents and Skunks","dateCited":"06/16/2014","dateCorrected":"07/10/2014","status":"Corrected","address":"100 WINTER ST","city":"Cambridge, MA"},"geometry":{"type":"Point","coordinates":[-71.08266369,42.37278261]}},{"type":"Feature","properties":{"parcel":"255-32","codeNo":410.55,"codeDesc":"Extermination of Insects, Rodents and Skunks","dateCited":"06/18/2014","dateCorrected":"","status":"Cited","address":"19 Sullivan Rd","city":"Cambridge, MA"},"geometry":{"type":"Point","coordinates":[-71.15379405,42.37567484]}},{"type":"Feature","properties":{"parcel":"90-169","codeNo":410.55,"codeDesc":"Extermination of Insects, Rodents and Skunks","dateCited":"06/18/2014","dateCorrected":"07/17/2014","status":"Corrected","address":"617 MASSACHUSETTS AVE","city":"Cambridge, MA"},"geometry":{"type":"Point","coordinates":[-71.10320542,42.36514414]}},{"type":"Feature","properties":{"parcel":"83-34-3","codeNo":410.55,"codeDesc":"Extermination of Insects, Rodents and Skunks","dateCited":"06/23/2014","dateCorrected":"07/30/2014","status":"Corrected","address":"8 Oakland St","city":"Cambridge, MA"},"geometry":{"type":"Point","coordinates":[-71.09904568,42.37384156]}},{"type":"Feature","properties":{"parcel":"190-48","codeNo":410.55,"codeDesc":"Extermination of Insects, Rodents and Skunks","dateCited":"06/23/2014","dateCorrected":"","status":"Cited","address":"81 Clifton St","city":"Cambridge, MA"},"geometry":{"type":"Point","coordinates":[-71.13628398,42.39598035]}},{"type":"Feature","properties":{"parcel":"83-90","codeNo":410.55,"codeDesc":"Extermination of Insects, Rodents and Skunks","dateCited":"06/23/2014","dateCorrected":"09/08/2014","status":"Corrected","address":"1271 Cambridge St","city":"Cambridge, MA"},"geometry":{"type":"Point","coordinates":[-71.09871728,42.37348666]}},{"type":"Feature","properties":{"parcel":"83-90","codeNo":410.55,"codeDesc":"Extermination of Insects, Rodents and Skunks","dateCited":"06/23/2014","dateCorrected":"08/05/2014","status":"Corrected","address":"1281 Cambridge St","city":"Cambridge, MA"},"geometry":{"type":"Point","coordinates":[-71.09879794,42.37349703]}},{"type":"Feature","properties":{"parcel":"83-68","codeNo":410.55,"codeDesc":"Extermination of Insects, Rodents and Skunks","dateCited":"06/23/2014","dateCorrected":"07/30/2014","status":"Corrected","address":"10 CLARY ST","city":"Cambridge, MA"},"geometry":{"type":"Point","coordinates":[-71.0982218,42.37401325]}},{"type":"Feature","properties":{"parcel":"268A-32","codeNo":410.55,"codeDesc":"Extermination of Insects, Rodents and Skunks","dateCited":"06/23/2014","dateCorrected":"","status":"Cited","address":"4 Jefferson Pk","city":"Cambridge, MA"},"geometry":{"type":"Point","coordinates":[-71.08834665,42.37291102]}},{"type":"Feature","properties":{"parcel":"83-67-1245","codeNo":410.55,"codeDesc":"Extermination of Insects, Rodents and Skunks","dateCited":"06/23/2014","dateCorrected":"09/08/2014","status":"Corrected","address":"1245 CAMBRIDGE ST","city":"Cambridge, MA"},"geometry":{"type":"Point","coordinates":[-71.09820682,42.37342674]}},{"type":"Feature","properties":{"parcel":"83-35","codeNo":410.55,"codeDesc":"Extermination of Insects, Rodents and Skunks","dateCited":"06/23/2014","dateCorrected":"08/05/2014","status":"Corrected","address":"1295 CAMBRIDGE ST","city":"Cambridge, MA"},"geometry":{"type":"Point","coordinates":[-71.09887745,42.37350625]}},{"type":"Feature","properties":{"parcel":"91-185","codeNo":410.55,"codeDesc":"Extermination of Insects, Rodents and Skunks","dateCited":"06/25/2014","dateCorrected":"","status":"Cited","address":"66 BISHOP ALLEN DR","city":"Cambridge, MA"},"geometry":{"type":"Point","coordinates":[-71.10091597,42.36496865]}},{"type":"Feature","properties":{"parcel":"263-46","codeNo":410.55,"codeDesc":"Extermination of Insects, Rodents and Skunks","dateCited":"06/26/2014","dateCorrected":"","status":"Cited","address":"330 CONCORD AVE","city":"Cambridge, MA"},"geometry":{"type":"Point","coordinates":[-71.13536215,42.38438379]}},{"type":"Feature","properties":{"parcel":"35-70","codeNo":410.55,"codeDesc":"Extermination of Insects, Rodents and Skunks","dateCited":"06/26/2014","dateCorrected":"07/23/2014","status":"Corrected","address":"148-154 GORE ST","city":"Cambridge, MA"},"geometry":{"type":"Point","coordinates":[-71.08480848,42.37242063]}},{"type":"Feature","properties":{"parcel":"35-70","codeNo":410.55,"codeDesc":"Extermination of Insects, Rodents and Skunks","dateCited":"06/26/2014","dateCorrected":"07/23/2014","status":"Corrected","address":"148-154 GORE ST","city":"Cambridge, MA"},"geometry":{"type":"Point","coordinates":[-71.08480848,42.37242063]}},{"type":"Feature","properties":{"parcel":"37-58","codeNo":410.55,"codeDesc":"Extermination of Insects, Rodents and Skunks","dateCited":"07/01/2014","dateCorrected":"","status":"Cited","address":"19 Marcella St","city":"Cambridge, MA"},"geometry":{"type":"Point","coordinates":[-71.08969261,42.37147593]}},{"type":"Feature","properties":{"parcel":"96-124","codeNo":410.55,"codeDesc":"Extermination of Insects, Rodents and Skunks","dateCited":"07/01/2014","dateCorrected":"","status":"Cited","address":"85 HAMILTON ST","city":"Cambridge, MA"},"geometry":{"type":"Point","coordinates":[-71.10624514,42.35837448]}},{"type":"Feature","properties":{"parcel":"96-127-9","codeNo":410.55,"codeDesc":"Extermination of Insects, Rodents and Skunks","dateCited":"07/01/2014","dateCorrected":"08/27/2014","status":"Corrected","address":"100 ERIE ST","city":"Cambridge, MA"},"geometry":{"type":"Point","coordinates":[-71.10571509,42.3588642]}},{"type":"Feature","properties":{"parcel":"96-57","codeNo":410.55,"codeDesc":"Extermination of Insects, Rodents and Skunks","dateCited":"07/01/2014","dateCorrected":"07/23/2014","status":"Corrected","address":"216 BROOKLINE ST","city":"Cambridge, MA"},"geometry":{"type":"Point","coordinates":[-71.10654934,42.35872708]}},{"type":"Feature","properties":{"parcel":"196-106","codeNo":410.55,"codeDesc":"Extermination of Insects, Rodents and Skunks","dateCited":"07/02/2014","dateCorrected":"","status":"Cited","address":"5 Hollis Pk","city":"Cambridge, MA"},"geometry":{"type":"Point","coordinates":[-71.1291744,42.39377604]}},{"type":"Feature","properties":{"parcel":"176-13-2/3","codeNo":410.55,"codeDesc":"Extermination of Insects, Rodents and Skunks","dateCited":"07/02/2014","dateCorrected":"07/17/2014","status":"Corrected","address":"2 Arlington St","city":"Cambridge, MA"},"geometry":{"type":"Point","coordinates":[-71.11979828,42.38645213]}},{"type":"Feature","properties":{"parcel":"40-42","codeNo":410.55,"codeDesc":"Extermination of Insects, Rodents and Skunks","dateCited":"07/02/2014","dateCorrected":"07/25/2014","status":"Corrected","address":"81 WEBSTER AVE","city":"Cambridge, MA"},"geometry":{"type":"Point","coordinates":[-71.09292592,42.36868971]}},{"type":"Feature","properties":{"parcel":"78-92","codeNo":410.55,"codeDesc":"Extermination of Insects, Rodents and Skunks","dateCited":"07/03/2014","dateCorrected":"09/12/2014","status":"Corrected","address":"22 Portsmouth St","city":"Cambridge, MA"},"geometry":{"type":"Point","coordinates":[-71.0935251,42.36858716]}},{"type":"Feature","properties":{"parcel":"78-74-7/1","codeNo":410.55,"codeDesc":"Extermination of Insects, Rodents and Skunks","dateCited":"07/03/2014","dateCorrected":"07/30/2014","status":"Corrected","address":"7 Seckel St","city":"Cambridge, MA"},"geometry":{"type":"Point","coordinates":[-71.10600946,42.36679164]}},{"type":"Feature","properties":{"parcel":"86-9","codeNo":410.55,"codeDesc":"Extermination of Insects, Rodents and Skunks","dateCited":"07/03/2014","dateCorrected":"","status":"Cited","address":"230 Norfolk St","city":"Cambridge, MA"},"geometry":{"type":"Point","coordinates":[-71.09821143,42.36979244]}},{"type":"Feature","properties":{"parcel":"78-74-7/1","codeNo":410.55,"codeDesc":"Extermination of Insects, Rodents and Skunks","dateCited":"07/03/2014","dateCorrected":"07/30/2014","status":"Corrected","address":"7 Seckel St","city":"Cambridge, MA"},"geometry":{"type":"Point","coordinates":[-71.10600946,42.36679164]}},{"type":"Feature","properties":{"parcel":"78-74-9/1","codeNo":410.55,"codeDesc":"Extermination of Insects, Rodents and Skunks","dateCited":"07/03/2014","dateCorrected":"07/30/2014","status":"Corrected","address":"7 Seckel St","city":"Cambridge, MA"},"geometry":{"type":"Point","coordinates":[-71.10600946,42.36679164]}},{"type":"Feature","properties":{"parcel":"78-45","codeNo":410.55,"codeDesc":"Extermination of Insects, Rodents and Skunks","dateCited":"07/03/2014","dateCorrected":"","status":"Cited","address":"59 Plymouth St","city":"Cambridge, MA"},"geometry":{"type":"Point","coordinates":[-71.09326584,42.36908609]}},{"type":"Feature","properties":{"parcel":"78-149","codeNo":410.55,"codeDesc":"Extermination of Insects, Rodents and Skunks","dateCited":"07/03/2014","dateCorrected":"07/17/2014","status":"Corrected","address":"144 Webster Ave","city":"Cambridge, MA"},"geometry":{"type":"Point","coordinates":[-71.09341564,42.36998948]}},{"type":"Feature","properties":{"parcel":"74-116","codeNo":410.55,"codeDesc":"Extermination of Insects, Rodents and Skunks","dateCited":"07/03/2014","dateCorrected":"08/14/2014","status":"Corrected","address":"241 WASHINGTON ST","city":"Cambridge, MA"},"geometry":{"type":"Point","coordinates":[-71.0964254,42.36491714]}},{"type":"Feature","properties":{"parcel":"78-32","codeNo":410.55,"codeDesc":"Extermination of Insects, Rodents and Skunks","dateCited":"07/03/2014","dateCorrected":"","status":"Cited","address":"86 Webster Ave","city":"Cambridge, MA"},"geometry":{"type":"Point","coordinates":[-71.09301464,42.36872889]}},{"type":"Feature","properties":{"parcel":"78-74","codeNo":410.55,"codeDesc":"Extermination of Insects, Rodents and Skunks","dateCited":"07/03/2014","dateCorrected":"07/30/2014","status":"Corrected","address":"7 Seckel St","city":"Cambridge, MA"},"geometry":{"type":"Point","coordinates":[-71.10600946,42.36679164]}},{"type":"Feature","properties":{"parcel":"78-99","codeNo":410.55,"codeDesc":"Extermination of Insects, Rodents and Skunks","dateCited":"07/03/2014","dateCorrected":"07/08/2014","status":"Corrected","address":"74 Plymouth St","city":"Cambridge, MA"},"geometry":{"type":"Point","coordinates":[-71.09373482,42.36894206]}},{"type":"Feature","properties":{"parcel":"129-34","codeNo":410.55,"codeDesc":"Extermination of Insects, Rodents and Skunks","dateCited":"07/07/2014","dateCorrected":"09/09/2014","status":"Corrected","address":"315 RIVER ST","city":"Cambridge, MA"},"geometry":{"type":"Point","coordinates":[-71.11372921,42.36225652]}},{"type":"Feature","properties":{"parcel":"129-42","codeNo":410.55,"codeDesc":"Extermination of Insects, Rodents and Skunks","dateCited":"07/07/2014","dateCorrected":"","status":"Cited","address":"325 RIVER ST","city":"Cambridge, MA"},"geometry":{"type":"Point","coordinates":[-71.11392856,42.3621966]}},{"type":"Feature","properties":{"parcel":"89-1","codeNo":410.55,"codeDesc":"Extermination of Insects, Rodents and Skunks","dateCited":"07/07/2014","dateCorrected":"","status":"Cited","address":"413 WASHINGTON ST","city":"Cambridge, MA"},"geometry":{"type":"Point","coordinates":[-71.10060242,42.36597609]}},{"type":"Feature","properties":{"parcel":"82-8","codeNo":410.55,"codeDesc":"Extermination of Insects, Rodents and Skunks","dateCited":"07/08/2014","dateCorrected":"08/20/2014","status":"Corrected","address":"354 PROSPECT ST","city":"Cambridge, MA"},"geometry":{"type":"Point","coordinates":[-71.09798213,42.37355119]}},{"type":"Feature","properties":{"parcel":"77-92","codeNo":410.55,"codeDesc":"Extermination of Insects, Rodents and Skunks","dateCited":"07/08/2014","dateCorrected":"","status":"Cited","address":"19-25 MARKET ST","city":"Cambridge, MA"},"geometry":{"type":"Point","coordinates":[-71.09470371,42.36741229]}},{"type":"Feature","properties":{"parcel":"82-11","codeNo":410.55,"codeDesc":"Extermination of Insects, Rodents and Skunks","dateCited":"07/09/2014","dateCorrected":"09/05/2014","status":"Corrected","address":"1191 CAMBRIDGE ST","city":"Cambridge, MA"},"geometry":{"type":"Point","coordinates":[-71.09710755,42.37327694]}},{"type":"Feature","properties":{"parcel":"82-12","codeNo":410.55,"codeDesc":"Extermination of Insects, Rodents and Skunks","dateCited":"07/09/2014","dateCorrected":"09/18/2014","status":"Corrected","address":"1197 CAMBRIDGE ST","city":"Cambridge, MA"},"geometry":{"type":"Point","coordinates":[-71.09732648,42.3733069]}},{"type":"Feature","properties":{"parcel":"82-9","codeNo":410.55,"codeDesc":"Extermination of Insects, Rodents and Skunks","dateCited":"07/09/2014","dateCorrected":"09/12/2014","status":"Corrected","address":"109 TREMONT ST","city":"Cambridge, MA"},"geometry":{"type":"Point","coordinates":[-71.09692779,42.37359843]}},{"type":"Feature","properties":{"parcel":"82-10","codeNo":410.55,"codeDesc":"Extermination of Insects, Rodents and Skunks","dateCited":"07/09/2014","dateCorrected":"","status":"Cited","address":"107 TREMONT ST","city":"Cambridge, MA"},"geometry":{"type":"Point","coordinates":[-71.09701767,42.37347859]}},{"type":"Feature","properties":{"parcel":"85-47","codeNo":410.55,"codeDesc":"Extermination of Insects, Rodents and Skunks","dateCited":"07/10/2014","dateCorrected":"09/12/2014","status":"Corrected","address":"185 Elm St","city":"Cambridge, MA"},"geometry":{"type":"Point","coordinates":[-71.09643922,42.37127658]}},{"type":"Feature","properties":{"parcel":"146-91","codeNo":410.55,"codeDesc":"Extermination of Insects, Rodents and Skunks","dateCited":"07/17/2014","dateCorrected":"","status":"Cited","address":"16 FRANCIS AVE","city":"Cambridge, MA"},"geometry":{"type":"Point","coordinates":[-71.11188671,42.37828937]}},{"type":"Feature","properties":{"parcel":"146-91","codeNo":410.55,"codeDesc":"Extermination of Insects, Rodents and Skunks","dateCited":"07/17/2014","dateCorrected":"","status":"Cited","address":"16 FRANCIS AVE","city":"Cambridge, MA"},"geometry":{"type":"Point","coordinates":[-71.11188671,42.37828937]}},{"type":"Feature","properties":{"parcel":"94-175","codeNo":410.55,"codeDesc":"Extermination of Insects, Rodents and Skunks","dateCited":"07/18/2014","dateCorrected":"","status":"Cited","address":"177 Erie St","city":"Cambridge, MA"},"geometry":{"type":"Point","coordinates":[-71.1073859,42.35991508]}},{"type":"Feature","properties":{"parcel":"97-4","codeNo":410.55,"codeDesc":"Extermination of Insects, Rodents and Skunks","dateCited":"07/18/2014","dateCorrected":"","status":"Cited","address":"280 PEARL ST","city":"Cambridge, MA"},"geometry":{"type":"Point","coordinates":[-71.10999006,42.35782715]}},{"type":"Feature","properties":{"parcel":"35-32","codeNo":410.55,"codeDesc":"Extermination of Insects, Rodents and Skunks","dateCited":"07/21/2014","dateCorrected":"","status":"Cited","address":"27 Seventh St","city":"Cambridge, MA"},"geometry":{"type":"Point","coordinates":[-71.08551559,42.37197717]}},{"type":"Feature","properties":{"parcel":"35-32","codeNo":410.55,"codeDesc":"Extermination of Insects, Rodents and Skunks","dateCited":"07/22/2014","dateCorrected":"","status":"Cited","address":"27 Seventh St","city":"Cambridge, MA"},"geometry":{"type":"Point","coordinates":[-71.08551559,42.37197717]}},{"type":"Feature","properties":{"parcel":"108-16","codeNo":410.55,"codeDesc":"Extermination of Insects, Rodents and Skunks","dateCited":"07/23/2014","dateCorrected":"","status":"Cited","address":"9 WEST ST","city":"Cambridge, MA"},"geometry":{"type":"Point","coordinates":[-71.10396132,42.36962651]}},{"type":"Feature","properties":{"parcel":"107-21","codeNo":410.55,"codeDesc":"Extermination of Insects, Rodents and Skunks","dateCited":"07/23/2014","dateCorrected":"","status":"Cited","address":"26 INMAN ST","city":"Cambridge, MA"},"geometry":{"type":"Point","coordinates":[-71.10433351,42.36793036]}},{"type":"Feature","properties":{"parcel":"23-131","codeNo":410.55,"codeDesc":"Extermination of Insects, Rodents and Skunks","dateCited":"07/23/2014","dateCorrected":"08/25/2014","status":"Corrected","address":"440 CAMBRIDGE ST","city":"Cambridge, MA"},"geometry":{"type":"Point","coordinates":[-71.08345416,42.37145173]}},{"type":"Feature","properties":{"parcel":"107-19-3","codeNo":410.55,"codeDesc":"Extermination of Insects, Rodents and Skunks","dateCited":"07/23/2014","dateCorrected":"08/06/2014","status":"Corrected","address":"22 INMAN ST","city":"Cambridge, MA"},"geometry":{"type":"Point","coordinates":[-71.10442338,42.36779093]}},{"type":"Feature","properties":{"parcel":"108-12-2","codeNo":410.55,"codeDesc":"Extermination of Insects, Rodents and Skunks","dateCited":"07/23/2014","dateCorrected":"09/04/2014","status":"Corrected","address":"27 WEST ST","city":"Cambridge, MA"},"geometry":{"type":"Point","coordinates":[-71.10450174,42.36981549]}},{"type":"Feature","properties":{"parcel":"215-24","codeNo":410.55,"codeDesc":"Extermination of Insects, Rodents and Skunks","dateCited":"07/23/2014","dateCorrected":"","status":"Cited","address":"48 GARDEN ST","city":"Cambridge, MA"},"geometry":{"type":"Point","coordinates":[-71.1248856,42.37985993]}},{"type":"Feature","properties":{"parcel":"107-59-2","codeNo":410.55,"codeDesc":"Extermination of Insects, Rodents and Skunks","dateCited":"07/23/2014","dateCorrected":"08/11/2014","status":"Corrected","address":"28 INMAN ST","city":"Cambridge, MA"},"geometry":{"type":"Point","coordinates":[-71.10417334,42.36816081]}},{"type":"Feature","properties":{"parcel":"107-127","codeNo":410.55,"codeDesc":"Extermination of Insects, Rodents and Skunks","dateCited":"07/24/2014","dateCorrected":"","status":"Cited","address":"276 HARVARD ST","city":"Cambridge, MA"},"geometry":{"type":"Point","coordinates":[-71.10350041,42.36889251]}},{"type":"Feature","properties":{"parcel":"253-151","codeNo":410.55,"codeDesc":"Extermination of Insects, Rodents and Skunks","dateCited":"07/25/2014","dateCorrected":"","status":"Cited","address":"137 HOLWORTHY ST","city":"Cambridge, MA"},"geometry":{"type":"Point","coordinates":[-71.1508661,42.37838962]}},{"type":"Feature","properties":{"parcel":"92-130","codeNo":410.55,"codeDesc":"Extermination of Insects, Rodents and Skunks","dateCited":"07/30/2014","dateCorrected":"","status":"Cited","address":"41 Pilgrim St","city":"Cambridge, MA"},"geometry":{"type":"Point","coordinates":[-71.10296575,42.36154441]}},{"type":"Feature","properties":{"parcel":"37-65","codeNo":410.55,"codeDesc":"Extermination of Insects, Rodents and Skunks","dateCited":"08/01/2014","dateCorrected":"08/18/2014","status":"Corrected","address":"1 Marcella St","city":"Cambridge, MA"},"geometry":{"type":"Point","coordinates":[-71.08910265,42.37129617]}},{"type":"Feature","properties":{"parcel":"80-176","codeNo":410.55,"codeDesc":"Extermination of Insects, Rodents and Skunks","dateCited":"08/11/2014","dateCorrected":"","status":"Cited","address":"455 WINDSOR ST","city":"Cambridge, MA"},"geometry":{"type":"Point","coordinates":[-71.09352241,42.37216434]}},{"type":"Feature","properties":{"parcel":"78-22","codeNo":410.55,"codeDesc":"Extermination of Insects, Rodents and Skunks","dateCited":"08/12/2014","dateCorrected":"","status":"Cited","address":"65 BRISTOL ST","city":"Cambridge, MA"},"geometry":{"type":"Point","coordinates":[-71.09336839,42.36820575]}},{"type":"Feature","properties":{"parcel":"126-140-275/1","codeNo":410.55,"codeDesc":"Extermination of Insects, Rodents and Skunks","dateCited":"08/13/2014","dateCorrected":"","status":"Cited","address":"275-277 River St","city":"Cambridge, MA"},"geometry":{"type":"Point","coordinates":[-71.11271785,42.36259217]}},{"type":"Feature","properties":{"parcel":"263-51","codeNo":410.55,"codeDesc":"Extermination of Insects, Rodents and Skunks","dateCited":"08/13/2014","dateCorrected":"","status":"Cited","address":"308 CONCORD AVE","city":"Cambridge, MA"},"geometry":{"type":"Point","coordinates":[-71.13464197,42.38406345]}},{"type":"Feature","properties":{"parcel":"126-141","codeNo":410.55,"codeDesc":"Extermination of Insects, Rodents and Skunks","dateCited":"08/13/2014","dateCorrected":"","status":"Cited","address":"279 RIVER ST","city":"Cambridge, MA"},"geometry":{"type":"Point","coordinates":[-71.11285924,42.36254574]}},{"type":"Feature","properties":{"parcel":"126-29","codeNo":410.55,"codeDesc":"Extermination of Insects, Rodents and Skunks","dateCited":"08/14/2014","dateCorrected":"","status":"Cited","address":"264 PUTNAM AVE","city":"Cambridge, MA"},"geometry":{"type":"Point","coordinates":[-71.11356444,42.36260451]}},{"type":"Feature","properties":{"parcel":"20-70","codeNo":410.55,"codeDesc":"Extermination of Insects, Rodents and Skunks","dateCited":"08/18/2014","dateCorrected":"","status":"Cited","address":"14 SECOND ST","city":"Cambridge, MA"},"geometry":{"type":"Point","coordinates":[-71.07849474,42.37115214]}},{"type":"Feature","properties":{"parcel":"101-124","codeNo":410.55,"codeDesc":"Extermination of Insects, Rodents and Skunks","dateCited":"08/19/2014","dateCorrected":"","status":"Cited","address":"111 MAGAZINE ST","city":"Cambridge, MA"},"geometry":{"type":"Point","coordinates":[-71.11026084,42.35988282]}},{"type":"Feature","properties":{"parcel":"20-68","codeNo":410.55,"codeDesc":"Extermination of Insects, Rodents and Skunks","dateCited":"08/19/2014","dateCorrected":"08/26/2014","status":"Corrected","address":"151 CAMBRIDGE ST","city":"Cambridge, MA"},"geometry":{"type":"Point","coordinates":[-71.07826659,42.37085715]}},{"type":"Feature","properties":{"parcel":"26-59","codeNo":410.55,"codeDesc":"Extermination of Insects, Rodents and Skunks","dateCited":"08/21/2014","dateCorrected":"","status":"Cited","address":"105 SCIARAPPA ST","city":"Cambridge, MA"},"geometry":{"type":"Point","coordinates":[-71.08211521,42.36868856]}},{"type":"Feature","properties":{"parcel":"34-113","codeNo":410.55,"codeDesc":"Extermination of Insects, Rodents and Skunks","dateCited":"08/21/2014","dateCorrected":"","status":"Corrected","address":"56 SEVENTH ST","city":"Cambridge, MA"},"geometry":{"type":"Point","coordinates":[-71.08561584,42.37126045]}},{"type":"Feature","properties":{"parcel":"34-58","codeNo":410.55,"codeDesc":"Extermination of Insects, Rodents and Skunks","dateCited":"08/21/2014","dateCorrected":"09/11/2014","status":"Corrected","address":"48 SEVENTH ST","city":"Cambridge, MA"},"geometry":{"type":"Point","coordinates":[-71.08556514,42.37144021]}},{"type":"Feature","properties":{"parcel":"166-71-106","codeNo":410.55,"codeDesc":"Extermination of Insects, Rodents and Skunks","dateCited":"08/24/2014","dateCorrected":"08/27/2014","status":"Corrected","address":"992 MEMORIAL DR","city":"Cambridge, MA"},"geometry":{"type":"Point","coordinates":[-71.12627483,42.37313444]}},{"type":"Feature","properties":{"parcel":"191-101","codeNo":410.55,"codeDesc":"Extermination of Insects, Rodents and Skunks","dateCited":"08/25/2014","dateCorrected":"","status":"Cited","address":"14 ALBERTA TER","city":"Cambridge, MA"},"geometry":{"type":"Point","coordinates":[-71.13031631,42.3967639]}},{"type":"Feature","properties":{"parcel":"202-36","codeNo":410.55,"codeDesc":"Extermination of Insects, Rodents and Skunks","dateCited":"08/26/2014","dateCorrected":"","status":"Cited","address":"37 HUBBARD AVE","city":"Cambridge, MA"},"geometry":{"type":"Point","coordinates":[-71.12711642,42.38862649]}},{"type":"Feature","properties":{"parcel":"116-91","codeNo":410.55,"codeDesc":"Extermination of Insects, Rodents and Skunks","dateCited":"08/27/2014","dateCorrected":"09/09/2014","status":"Corrected","address":"89 HANCOCK ST","city":"Cambridge, MA"},"geometry":{"type":"Point","coordinates":[-71.10823052,42.36889251]}},{"type":"Feature","properties":{"parcel":"76-13","codeNo":410.55,"codeDesc":"Extermination of Insects, Rodents and Skunks","dateCited":"08/27/2014","dateCorrected":"09/09/2014","status":"Corrected","address":"259 Broadway","city":"Cambridge, MA"},"geometry":{"type":"Point","coordinates":[-71.09624171,42.36747568]}},{"type":"Feature","properties":{"parcel":"117-103","codeNo":410.55,"codeDesc":"Extermination of Insects, Rodents and Skunks","dateCited":"09/02/2014","dateCorrected":"","status":"Cited","address":"29 Lee St","city":"Cambridge, MA"},"geometry":{"type":"Point","coordinates":[-71.10649403,42.36910107]}},{"type":"Feature","properties":{"parcel":"21-55","codeNo":410.55,"codeDesc":"Extermination of Insects, Rodents and Skunks","dateCited":"09/02/2014","dateCorrected":"","status":"Cited","address":"33 WINTER ST","city":"Cambridge, MA"},"geometry":{"type":"Point","coordinates":[-71.08102745,42.37261669]}},{"type":"Feature","properties":{"parcel":"87-48","codeNo":410.55,"codeDesc":"Extermination of Insects, Rodents and Skunks","dateCited":"09/03/2014","dateCorrected":"09/15/2014","status":"Corrected","address":"13 GARDNER RD","city":"Cambridge, MA"},"geometry":{"type":"Point","coordinates":[-71.09959993,42.3708053]}},{"type":"Feature","properties":{"parcel":"88-52","codeNo":410.55,"codeDesc":"Extermination of Insects, Rodents and Skunks","dateCited":"09/03/2014","dateCorrected":"","status":"Cited","address":"17 Elm St","city":"Cambridge, MA"},"geometry":{"type":"Point","coordinates":[-71.0985502,42.36766648]}},{"type":"Feature","properties":{"parcel":"87-129","codeNo":410.55,"codeDesc":"Extermination of Insects, Rodents and Skunks","dateCited":"09/03/2014","dateCorrected":"09/15/2014","status":"Corrected","address":"1 GARDNER RD","city":"Cambridge, MA"},"geometry":{"type":"Point","coordinates":[-71.09909062,42.37059558]}},{"type":"Feature","properties":{"parcel":"25-59","codeNo":410.55,"codeDesc":"Extermination of Insects, Rodents and Skunks","dateCited":"09/03/2014","dateCorrected":"09/10/2014","status":"Corrected","address":"110 THORNDIKE ST","city":"Cambridge, MA"},"geometry":{"type":"Point","coordinates":[-71.0829437,42.36996183]}},{"type":"Feature","properties":{"parcel":"87-152","codeNo":410.55,"codeDesc":"Extermination of Insects, Rodents and Skunks","dateCited":"09/04/2014","dateCorrected":"","status":"Cited","address":"240 PROSPECT ST","city":"Cambridge, MA"},"geometry":{"type":"Point","coordinates":[-71.09961376,42.37127082]}},{"type":"Feature","properties":{"parcel":"87-151","codeNo":410.55,"codeDesc":"Extermination of Insects, Rodents and Skunks","dateCited":"09/04/2014","dateCorrected":"","status":"Cited","address":"238 PROSPECT ST","city":"Cambridge, MA"},"geometry":{"type":"Point","coordinates":[-71.09965409,42.3712109]}},{"type":"Feature","properties":{"parcel":"76-126","codeNo":410.55,"codeDesc":"Extermination of Insects, Rodents and Skunks","dateCited":"09/04/2014","dateCorrected":"","status":"Cited","address":"183 HARVARD ST","city":"Cambridge, MA"},"geometry":{"type":"Point","coordinates":[-71.09673882,42.3666156]}},{"type":"Feature","properties":{"parcel":"37-65","codeNo":410.55,"codeDesc":"Extermination of Insects, Rodents and Skunks","dateCited":"09/04/2014","dateCorrected":"","status":"Cited","address":"1 Marcella St","city":"Cambridge, MA"},"geometry":{"type":"Point","coordinates":[-71.08910265,42.37129617]}},{"type":"Feature","properties":{"parcel":"112-18-1","codeNo":410.55,"codeDesc":"Extermination of Insects, Rodents and Skunks","dateCited":"09/05/2014","dateCorrected":"","status":"Cited","address":"43 HIGHLAND AVE","city":"Cambridge, MA"},"geometry":{"type":"Point","coordinates":[-71.10582571,42.37290936]}},{"type":"Feature","properties":{"parcel":"87-32","codeNo":410.55,"codeDesc":"Extermination of Insects, Rodents and Skunks","dateCited":"09/05/2014","dateCorrected":"","status":"Cited","address":"244 PROSPECT ST","city":"Cambridge, MA"},"geometry":{"type":"Point","coordinates":[-71.09953425,42.37138029]}},{"type":"Feature","properties":{"parcel":"255-32","codeNo":410.55,"codeDesc":"Extermination of Insects, Rodents and Skunks","dateCited":"09/05/2014","dateCorrected":"","status":"Cited","address":"19 Sullivan Rd","city":"Cambridge, MA"},"geometry":{"type":"Point","coordinates":[-71.15379405,42.37567484]}},{"type":"Feature","properties":{"parcel":"88-50","codeNo":410.55,"codeDesc":"Extermination of Insects, Rodents and Skunks","dateCited":"09/08/2014","dateCorrected":"","status":"Cited","address":"156 NORFOLK ST","city":"Cambridge, MA"},"geometry":{"type":"Point","coordinates":[-71.09927384,42.36805019]}},{"type":"Feature","properties":{"parcel":"101-120","codeNo":410.55,"codeDesc":"Extermination of Insects, Rodents and Skunks","dateCited":"09/08/2014","dateCorrected":"","status":"Cited","address":"101 Magazine St","city":"Cambridge, MA"},"geometry":{"type":"Point","coordinates":[-71.10987137,42.36024233]}},{"type":"Feature","properties":{"parcel":"101-120","codeNo":410.55,"codeDesc":"Extermination of Insects, Rodents and Skunks","dateCited":"09/08/2014","dateCorrected":"","status":"Cited","address":"101 Magazine St","city":"Cambridge, MA"},"geometry":{"type":"Point","coordinates":[-71.10987137,42.36024233]}},{"type":"Feature","properties":{"parcel":"112-77","codeNo":410.55,"codeDesc":"Extermination of Insects, Rodents and Skunks","dateCited":"09/09/2014","dateCorrected":"","status":"Cited","address":"37 HIGHLAND AVE","city":"Cambridge, MA"},"geometry":{"type":"Point","coordinates":[-71.10600547,42.37269043]}},{"type":"Feature","properties":{"parcel":"26-59","codeNo":410.55,"codeDesc":"Extermination of Insects, Rodents and Skunks","dateCited":"09/09/2014","dateCorrected":"","status":"Cited","address":"105 SCIARAPPA ST","city":"Cambridge, MA"},"geometry":{"type":"Point","coordinates":[-71.08211521,42.36868856]}},{"type":"Feature","properties":{"parcel":"36-266","codeNo":410.55,"codeDesc":"Extermination of Insects, Rodents and Skunks","dateCited":"09/09/2014","dateCorrected":"","status":"Cited","address":"855 Cambridge St","city":"Cambridge, MA"},"geometry":{"type":"Point","coordinates":[-71.09101659,42.37248648]}},{"type":"Feature","properties":{"parcel":"168-5","codeNo":410.55,"codeDesc":"Extermination of Insects, Rodents and Skunks","dateCited":"09/12/2014","dateCorrected":"","status":"Cited","address":"7 STORY ST","city":"Cambridge, MA"},"geometry":{"type":"Point","coordinates":[-71.12224227,42.37408584]}},{"type":"Feature","properties":{"parcel":"89-68-2","codeNo":410.55,"codeDesc":"Extermination of Insects, Rodents and Skunks","dateCited":"09/16/2014","dateCorrected":"","status":"Cited","address":"19 WORCESTER ST","city":"Cambridge, MA"},"geometry":{"type":"Point","coordinates":[-71.09951236,42.36679651]}},{"type":"Feature","properties":{"parcel":"89-36-10/2","codeNo":410.55,"codeDesc":"Extermination of Insects, Rodents and Skunks","dateCited":"09/16/2014","dateCorrected":"","status":"Cited","address":"10 Worcester St","city":"Cambridge, MA"},"geometry":{"type":"Point","coordinates":[-71.09885902,42.36654301]}},{"type":"Feature","properties":{"parcel":"89-87","codeNo":410.55,"codeDesc":"Extermination of Insects, Rodents and Skunks","dateCited":"09/17/2014","dateCorrected":"","status":"Cited","address":"25 Suffolk St","city":"Cambridge, MA"},"geometry":{"type":"Point","coordinates":[-71.09979236,42.36629642]}},{"type":"Feature","properties":{"parcel":"89-49","codeNo":410.55,"codeDesc":"Extermination of Insects, Rodents and Skunks","dateCited":"09/17/2014","dateCorrected":"","status":"Cited","address":"120 Norfolk St","city":"Cambridge, MA"},"geometry":{"type":"Point","coordinates":[-71.09991451,42.36716985]}},{"type":"Feature","properties":{"parcel":"127-20","codeNo":410.55,"codeDesc":"Extermination of Insects, Rodents and Skunks","dateCited":"09/17/2014","dateCorrected":"","status":"Cited","address":"354 PUTNAM AVE","city":"Cambridge, MA"},"geometry":{"type":"Point","coordinates":[-71.11332379,42.36107399]}},{"type":"Feature","properties":{"parcel":"89-50","codeNo":410.55,"codeDesc":"Extermination of Insects, Rodents and Skunks","dateCited":"09/17/2014","dateCorrected":"","status":"Cited","address":"134 Norfolk St","city":"Cambridge, MA"},"geometry":{"type":"Point","coordinates":[-71.0997336,42.36741068]}},{"type":"Feature","properties":{"parcel":"89-53-1","codeNo":410.55,"codeDesc":"Extermination of Insects, Rodents and Skunks","dateCited":"09/17/2014","dateCorrected":"","status":"Cited","address":"220 HARVARD ST","city":"Cambridge, MA"},"geometry":{"type":"Point","coordinates":[-71.09905951,42.36733232]}},{"type":"Feature","properties":{"parcel":"89-54-1","codeNo":410.55,"codeDesc":"Extermination of Insects, Rodents and Skunks","dateCited":"09/17/2014","dateCorrected":"","status":"Cited","address":"218 HARVARD ST","city":"Cambridge, MA"},"geometry":{"type":"Point","coordinates":[-71.09889935,42.36728277]}}]}